,City,Lat,Lng,Max Temp,Humidity,Cloudiness,Wind Speed,Country,Date
0,Kelapa Sawit,1.67,103.53,77.0,94,20,1.12,MY,1598811320
1,Gisborne,-38.65,178.0,43.0,92,0,3.0,NZ,1598811304
2,Mangan,27.52,88.53,76.24,59,98,0.67,IN,1598811320
3,Cascais,38.7,-9.42,72.0,46,0,27.51,PT,1598811180
4,Port Alfred,-33.59,26.89,52.0,68,32,12.06,ZA,1598811321
5,Nome,64.5,-165.41,52.0,76,20,10.29,US,1598811321
6,Cape Town,-33.93,18.42,48.99,66,6,2.24,ZA,1598811301
7,Westport,41.14,-73.36,78.01,47,75,9.17,US,1598811321
8,Bathsheba,13.22,-59.52,87.8,70,40,14.99,BB,1598811322
9,Hithadhoo,-0.6,73.08,82.24,76,11,12.64,MV,1598811322
10,Avarua,-21.21,-159.78,73.4,73,21,8.05,CK,1598811322
11,Opuwo,-18.06,13.84,61.39,28,1,6.46,NA,1598811322
12,Carnarvon,-24.87,113.63,62.6,88,0,9.17,AU,1598811323
13,Orativ,49.19,29.53,75.2,50,0,8.95,UA,1598811323
14,Rikitea,-23.12,-134.97,69.22,83,70,19.75,PF,1598811323
15,Constitución,-35.33,-72.42,55.87,53,0,14.88,CL,1598811323
16,Ushuaia,-54.8,-68.3,28.4,86,75,25.28,AR,1598811324
17,Touros,-5.2,-35.46,84.2,54,20,16.11,BR,1598811315
18,Deputatsky,69.3,139.9,27.48,99,5,2.42,RU,1598811324
19,Puerto Ayora,-0.74,-90.35,75.2,60,20,13.87,EC,1598811324
20,Vaini,-21.2,-175.2,75.2,88,20,9.17,TO,1598811324
21,Kapaa,22.08,-159.32,80.01,74,40,16.11,US,1598811325
22,Las Vegas,36.17,-115.14,97.0,14,1,5.82,US,1598810730
23,Port Hedland,-20.32,118.57,62.6,59,0,3.36,AU,1598811325
24,Bengkulu,-3.8,102.27,76.78,85,86,4.09,ID,1598811325
25,Arrondissement du Havre,49.58,0.33,60.8,72,75,13.87,FR,1598811325
26,Atuona,-9.8,-139.03,78.58,79,48,22.68,PF,1598811326
27,Taltal,-25.4,-70.48,59.7,63,45,5.01,CL,1598811326
28,Bambous Virieux,-20.34,57.76,71.6,83,75,14.99,MU,1598811326
29,Mataura,-46.19,168.86,45.0,72,47,11.01,NZ,1598811326
30,Yellowknife,62.46,-114.35,53.6,58,20,16.11,CA,1598811327
31,Rio do Sul,-27.21,-49.64,81.0,74,0,7.0,BR,1598811327
32,Butaritari,3.07,172.79,82.49,74,37,11.52,KI,1598811308
33,Steinbach am Taunus,50.17,8.57,63.0,87,40,4.7,DE,1598811327
34,Aklavik,68.22,-135.01,46.4,81,90,4.7,CA,1598811327
35,Srednekolymsk,67.45,153.68,37.2,88,13,6.08,RU,1598811328
36,Noumea,-22.28,166.46,69.01,82,78,3.36,NC,1598811246
37,Salalah,17.02,54.09,77.0,94,90,3.36,OM,1598811328
38,Flinders,-34.58,150.86,64.0,81,58,1.01,AU,1598811328
39,Namatanai,-3.67,152.43,79.02,85,57,7.2,PG,1598811328
40,Bredasdorp,-34.53,20.04,42.8,81,46,2.24,ZA,1598811329
41,Dunedin,-45.87,170.5,47.03,73,100,7.43,NZ,1598811139
42,Arraial do Cabo,-22.97,-42.03,89.6,55,0,9.17,BR,1598811183
43,Mar del Plata,-38.0,-57.56,59.0,26,0,23.04,AR,1598811299
44,Ürümqi,43.8,87.6,75.0,45,0,4.47,CN,1598811329
45,Kruisfontein,-34.0,24.73,48.0,79,92,8.41,ZA,1598811330
46,Ilulissat,69.22,-51.1,46.4,61,5,5.82,GL,1598811330
47,Manakara,-22.13,48.02,68.63,89,4,7.14,MG,1598811330
48,Avera,33.19,-82.53,89.6,70,75,4.7,US,1598811331
49,Bonavista,48.65,-53.11,55.99,79,100,1.99,CA,1598811331
50,São Filipe,14.9,-24.5,79.32,78,41,9.64,CV,1598811331
51,Leningradskiy,69.38,178.42,35.33,91,100,10.13,RU,1598811331
52,Mildura,-34.2,142.15,42.8,93,0,6.93,AU,1598811331
53,Gladstone,-23.85,151.25,60.8,82,77,4.7,AU,1598811332
54,Albany,42.6,-73.97,73.0,44,22,1.01,US,1598811332
55,Acaraú,-2.89,-40.12,87.66,51,55,22.26,BR,1598811332
56,Akureyri,65.68,-18.09,60.8,59,75,24.16,IS,1598811332
57,Matara,5.95,80.54,80.1,84,89,9.82,LK,1598811293
58,Chokurdakh,70.63,147.92,41.38,81,100,7.14,RU,1598811333
59,Tiarei,-17.53,-149.33,78.01,65,20,4.7,PF,1598811333
60,Kargasok,59.06,80.86,55.09,93,40,5.19,RU,1598811333
61,Baykit,61.67,96.37,50.54,87,55,2.17,RU,1598811334
62,Honiara,-9.43,159.95,75.2,100,20,2.24,SB,1598811280
63,Laguna,38.42,-121.42,77.0,56,1,3.36,US,1598811334
64,Angoche,-16.23,39.91,75.78,72,0,15.48,MZ,1598811334
65,Souillac,-20.52,57.52,71.6,83,75,14.99,MU,1598811334
66,Quthing,-30.4,27.7,39.43,57,0,2.28,LS,1598811335
67,London,51.51,-0.13,61.0,48,69,8.79,GB,1598810767
68,New Norfolk,-42.78,147.06,44.01,74,91,1.01,AU,1598811335
69,Hay River,60.82,-115.8,53.6,66,20,8.05,CA,1598811335
70,Fairbanks,64.84,-147.72,54.0,76,1,5.82,US,1598811078
71,Sharan,54.82,54.0,57.85,89,56,6.11,RU,1598811336
72,Rawson,-43.3,-65.1,52.52,50,9,21.12,AR,1598811336
73,Bilibino,68.05,166.44,40.01,82,100,4.18,RU,1598811336
74,Zheleznodorozhnyy,55.75,38.0,68.0,88,57,4.47,RU,1598811336
75,Longyearbyen,78.22,15.64,41.0,75,75,21.92,SJ,1598811337
76,Forbes,-33.38,148.02,51.01,79,30,6.11,AU,1598811337
77,Saint-Philippe,-21.36,55.77,68.0,77,29,4.7,RE,1598811337
78,Nouadhibou,20.93,-17.03,80.6,65,0,20.8,MR,1598811177
79,Jamestown,42.1,-79.24,70.0,63,75,8.05,US,1598811292
80,Punta Arenas,-53.15,-70.92,35.6,47,75,21.92,CL,1598811338
81,Hong Kong,22.29,114.16,84.0,79,95,3.0,HK,1598811338
82,Lompoc,34.64,-120.46,63.0,87,90,3.36,US,1598811232
83,Lavrentiya,65.58,-171.0,44.8,77,74,17.65,RU,1598811338
84,San Juan,-31.54,-68.54,59.81,33,18,3.09,AR,1598811338
85,Kavieng,-2.57,150.8,82.22,75,90,7.18,PG,1598811339
86,Narsaq,60.92,-46.05,53.6,58,99,1.12,GL,1598811339
87,Severo-Kuril'sk,50.68,156.12,49.35,89,29,15.28,RU,1598811339
88,Busselton,-33.65,115.33,42.01,72,0,4.74,AU,1598811339
89,Pabradė,55.0,25.78,59.0,93,75,5.82,LT,1598811340
90,Qaanaaq,77.48,-69.36,34.02,77,0,4.34,GL,1598811308
91,Port Lincoln,-34.73,135.87,51.84,63,42,6.31,AU,1598811340
92,Nikolskoye,59.7,30.79,62.01,82,20,4.47,RU,1598811340
93,Ostrovnoy,68.05,39.51,45.39,87,72,8.19,RU,1598811341
94,Venice,27.1,-82.45,90.0,70,20,10.29,US,1598811341
95,São João da Barra,-21.64,-41.05,84.2,54,20,18.34,BR,1598811341
96,Port Elizabeth,-33.92,25.57,48.2,87,40,4.7,ZA,1598811341
97,Gazojak,41.19,61.4,78.84,17,93,8.93,TM,1598811341
98,Forsytheganj,52.63,29.73,72.39,67,0,10.11,BY,1598811342
99,Coyhaique,-45.58,-72.07,51.8,78,20,6.93,CL,1598811342
100,Burley,42.54,-113.79,66.2,20,1,17.22,US,1598811342
101,Zdvinsk,54.7,78.66,58.62,88,0,3.04,RU,1598811343
102,Guiren,33.67,118.19,75.63,96,0,4.0,CN,1598811343
103,Kenai,60.55,-151.26,57.0,76,40,10.29,US,1598811343
104,Hamilton,39.18,-84.53,81.0,44,1,6.93,US,1598811257
105,Yangi Marg`ilon,40.43,71.72,75.2,53,3,2.24,UZ,1598811344
106,Areosa,41.72,-8.86,73.0,60,0,11.41,PT,1598811344
107,Basco,20.45,121.97,83.64,81,53,16.53,PH,1598811344
108,Bluff,-46.6,168.33,45.0,72,73,11.01,NZ,1598811344
109,Tuktoyaktuk,69.45,-133.04,41.0,93,90,17.22,CA,1598811345
110,Cartagena del Chairá,1.33,-74.84,91.42,46,100,4.0,CO,1598811345
111,Bilma,18.69,12.92,95.09,34,2,9.13,NE,1598811191
112,Seoul,37.57,126.98,77.0,88,1,4.7,KR,1598811212
113,Tuy Hoa,13.08,109.3,78.84,83,36,5.7,VN,1598811346
114,Caucaia,-3.74,-38.65,86.0,58,24,24.16,BR,1598811141
115,Alihe,50.57,123.72,53.1,95,100,2.82,CN,1598811346
116,Hobart,-42.88,147.33,44.01,75,40,14.99,AU,1598811092
117,Visby,57.64,18.3,62.01,87,90,4.7,SE,1598811315
118,Thompson,55.74,-97.86,55.4,100,90,6.93,CA,1598811347
119,Peniche,39.36,-9.38,71.01,70,0,11.01,PT,1598811347
120,Newport,51.59,-3.0,62.01,62,63,6.64,GB,1598811318
121,Kerema,-7.96,145.78,76.32,90,95,6.42,PG,1598811347
122,Strathpeffer,57.59,-4.54,57.2,71,75,1.12,GB,1598811347
123,Laas,46.62,10.7,55.99,87,40,2.24,IT,1598811348
124,Sitka,57.05,-135.33,53.6,81,90,13.87,US,1598811348
125,Puerto Nariño,-3.77,-70.38,87.8,74,40,2.24,CO,1598811173
126,Berehove,48.21,22.64,78.8,61,8,6.93,UA,1598811348
127,Biak,-0.91,122.88,77.54,77,92,8.12,ID,1598811349
128,Severnyy,50.68,36.55,77.0,38,0,4.47,RU,1598811349
129,Vila do Maio,15.13,-23.22,84.2,74,75,11.41,CV,1598811349
130,Klyuchi,52.27,79.17,62.58,70,1,6.24,RU,1598811349
131,Örnsköldsvik,63.29,18.72,53.6,87,100,8.05,SE,1598811350
132,Ancud,-41.87,-73.82,39.99,95,67,5.01,CL,1598811350
133,Boa Vista,2.82,-60.67,86.0,62,75,11.41,BR,1598811118
134,Eyl,7.98,49.82,78.39,74,95,24.11,SO,1598811350
135,Esperance,-33.87,121.9,44.6,87,66,12.75,AU,1598811350
136,Cidreira,-30.18,-50.21,58.08,92,100,14.61,BR,1598811351
137,Kardašova Řečice,49.18,14.85,64.99,88,69,3.0,CZ,1598811351
138,Tsimmerbude,54.67,20.13,64.4,82,20,2.24,RU,1598811351
139,Tursunzoda,38.51,68.23,69.8,49,0,4.47,TJ,1598811351
140,Havre-St-Pierre,50.23,-63.6,53.6,81,90,6.93,CA,1598811352
141,Ciudad Real,39.0,-4.0,75.0,27,0,12.28,ES,1598811352
142,Amga,60.9,131.96,52.99,78,100,4.0,RU,1598811352
143,Vilhena,-12.74,-60.15,91.4,41,40,6.93,BR,1598811352
144,Kununurra,-15.77,128.73,66.2,22,0,3.36,AU,1598811353
145,Guadalupe y Calvo,26.1,-106.97,70.84,73,3,4.05,MX,1598811353
146,Vikulovo,56.82,70.61,66.43,81,1,5.97,RU,1598811353
147,Mount Isa,-20.73,139.5,71.6,35,0,6.93,AU,1598811353
148,Seymchan,62.88,152.43,34.68,86,0,3.4,RU,1598811354
149,Ust-Tsilma,65.44,52.15,52.21,97,98,3.91,RU,1598811354
150,Lebu,-37.62,-73.65,50.29,65,0,22.84,CL,1598811354
151,Peshkopi,41.69,20.43,77.0,60,0,2.24,AL,1598811354
152,Kumul,42.8,93.45,71.31,22,0,6.69,CN,1598811355
153,Tasiilaq,65.61,-37.64,53.6,46,100,13.87,GL,1598811355
154,Yuanping,38.72,112.76,64.51,69,95,5.21,CN,1598811355
155,Saint George,37.1,-113.58,91.99,21,1,5.82,US,1598811069
156,Adana Province,36.98,35.29,84.2,62,0,4.7,TR,1598811148
157,Nizhnyaya Salda,58.08,60.72,60.89,89,88,6.22,RU,1598811355
158,Half Moon Bay,37.46,-122.43,69.01,82,40,6.93,US,1598811356
159,Darnah,32.77,22.64,77.99,75,0,11.1,LY,1598811356
160,Siverek,37.76,39.32,89.6,13,0,6.93,TR,1598811356
161,Castro,-24.79,-50.01,79.99,41,0,5.44,BR,1598811356
162,Chui,-33.7,-53.46,52.23,58,98,5.03,UY,1598811357
163,Cabo San Lucas,22.89,-109.91,88.0,83,40,10.29,MX,1598811357
164,Le Pont-de-Claix,45.12,5.71,52.0,88,35,1.01,FR,1598811357
165,Parangan,5.08,119.94,82.81,73,61,4.97,PH,1598811357
166,Dingle,11.0,122.67,77.56,84,100,5.1,PH,1598811358
167,Yulara,-25.24,130.99,59.0,44,0,5.82,AU,1598811358
168,Nemuro,43.32,145.57,55.62,78,96,16.35,JP,1598811358
169,Caranavi,-15.82,-67.55,86.77,29,35,5.66,BO,1598811359
170,Makakilo City,21.35,-158.09,82.0,65,20,4.7,US,1598811359
171,Saint-Augustin,51.23,-58.65,60.35,57,48,14.0,CA,1598811359
172,Vao,-22.67,167.48,66.67,65,79,13.62,NC,1598811359
173,Kalevala,65.2,31.17,51.89,72,94,3.27,RU,1598811360
174,Bulgan,48.81,103.53,48.9,89,83,4.85,MN,1598811360
175,Faya,18.39,42.45,80.6,16,80,12.75,SA,1598811360
176,Williams Lake,52.14,-122.14,53.6,58,75,9.17,CA,1598811360
177,Kutum,14.2,24.67,79.95,53,46,3.78,SD,1598811361
178,Ribeira Grande,38.52,-28.7,78.8,88,40,12.75,PT,1598811361
179,Awjilah,29.11,21.29,91.71,18,0,8.5,LY,1598811361
180,Béjar,40.39,-5.76,69.01,40,0,9.6,ES,1598811361
181,Bambanglipuro,-7.95,110.28,72.99,85,93,7.07,ID,1598811362
182,Ferrol,43.48,-8.24,66.2,52,20,10.29,ES,1598811362
183,Sawākin,19.11,37.33,94.8,36,68,5.68,SD,1598811362
184,Upernavik,72.79,-56.15,42.22,75,38,7.92,GL,1598811362
185,Mahébourg,-20.41,57.7,71.6,83,75,14.99,MU,1598811363
186,Vol'sk,52.03,47.38,63.57,61,35,2.17,RU,1598811363
187,Burnie,-41.07,145.92,44.01,69,62,14.0,AU,1598811363
188,Provideniya,64.38,-173.3,46.53,73,45,21.43,RU,1598811363
189,Sandakan,5.84,118.12,82.4,83,20,2.24,MY,1598811364
190,Sørland,67.67,12.69,50.0,61,40,8.05,NO,1598811364
191,La Ronge,55.1,-105.28,51.8,66,90,6.93,CA,1598811365
192,Dumbéa,-22.15,166.45,69.01,82,69,3.36,NC,1598811365
193,Vila Franca do Campo,37.72,-25.43,77.0,83,40,8.05,PT,1598811365
194,Slantsy,59.12,28.09,57.94,91,93,6.49,RU,1598811365
195,Huilong,31.81,121.66,82.99,94,0,1.99,CN,1598811366
196,Barrow,71.29,-156.79,39.2,86,90,11.41,US,1598811366
197,Saskylakh,71.92,114.08,46.87,82,63,3.89,RU,1598811366
198,Hilo,19.73,-155.09,73.4,83,1,7.23,US,1598811191
199,Oddur,4.12,43.89,79.9,58,28,19.15,SO,1598811366
200,Cherskiy,68.75,161.3,38.35,89,100,10.96,RU,1598811367
201,Camacha,33.08,-16.33,73.4,60,20,14.99,PT,1598811367
202,Port Blair,11.67,92.75,82.13,80,82,8.43,IN,1598811311
203,Talnakh,69.49,88.4,48.2,100,90,13.42,RU,1598811367
204,Bontang,0.13,117.5,77.81,87,44,5.03,ID,1598811368
205,Río Gallegos,-51.62,-69.22,39.2,41,40,21.92,AR,1598811368
206,Mokhotlong,-29.29,29.07,35.8,81,5,6.73,LS,1598811368
207,Cervo,43.67,-7.41,66.99,62,26,1.01,ES,1598811368
208,Tautira,-17.73,-149.15,78.01,65,20,4.7,PF,1598811369
209,Hambantota,6.12,81.12,81.07,79,99,16.37,LK,1598811369
210,Mariehamn,60.1,19.93,53.6,87,50,1.12,AX,1598811369
211,Beringovskiy,63.05,179.32,46.53,82,100,29.93,RU,1598811369
212,Waingapu,-9.66,120.26,73.54,85,74,10.58,ID,1598811370
213,Qasigiannguit,68.82,-51.19,46.4,61,5,5.82,GL,1598811370
214,Green River,41.53,-109.47,78.8,16,1,21.92,US,1598811370
215,Hermanus,-34.42,19.23,48.0,76,18,11.41,ZA,1598811348
216,Kencong,-8.28,113.37,70.5,83,65,3.31,ID,1598811370
217,Balkanabat,39.51,54.37,76.96,41,0,13.27,TM,1598811371
218,Iqaluit,63.75,-68.51,51.8,66,20,4.7,CA,1598811371
219,Santa Cruz de la Sierra,-17.8,-63.17,89.6,43,59,8.05,BO,1598811371
220,Kalmunai,7.42,81.82,81.7,79,98,5.06,LK,1598811371
221,Luoyang,34.68,112.45,75.0,99,0,8.14,CN,1598811372
222,Kumluca,36.37,30.29,88.03,34,0,3.69,TR,1598811372
223,Zarubino,42.63,131.09,63.68,86,100,10.83,RU,1598811372
224,Sokoni,-6.43,39.55,77.0,73,20,4.7,TZ,1598811372
225,Copiapó,-27.37,-70.33,59.0,62,20,12.75,CL,1598811373
226,Urucará,-2.54,-57.76,97.21,38,36,3.42,BR,1598811373
227,Marsá Maţrūḩ,31.35,27.25,82.4,65,0,12.75,EG,1598811373
228,Qui Nhon,13.77,109.23,79.63,83,64,6.13,VN,1598811373
229,Bethel,41.37,-73.41,75.99,56,15,1.01,US,1598811374
230,Plettenberg Bay,-34.05,23.37,49.23,66,38,7.31,ZA,1598811374
231,Comodoro Rivadavia,-45.87,-67.5,50.0,66,40,10.29,AR,1598811374
232,Guerrero Negro,27.98,-114.06,79.43,61,1,7.78,MX,1598811374
233,Karratha,-20.74,116.85,74.5,41,0,6.71,AU,1598811375
234,San Patricio,19.22,-104.7,79.09,88,99,1.99,MX,1598811375
235,Oranjemund,-28.55,16.43,52.48,60,72,22.19,NA,1598811375
236,Farmington,36.73,-108.22,84.2,23,1,11.41,US,1598811375
237,La Baule-Escoublac,47.29,-2.36,64.4,72,48,6.93,FR,1598811376
238,Cravo Norte,6.3,-70.2,87.17,62,49,4.85,CO,1598811376
239,Meulaboh,4.14,96.13,77.54,87,98,2.64,ID,1598811376
240,Carhuamayo,-10.92,-76.03,51.48,43,81,14.72,PE,1598811376
241,Nanchang,28.68,115.88,79.79,71,0,5.75,CN,1598811146
242,Ahipara,-35.17,173.17,53.19,87,36,5.59,NZ,1598811377
243,Zhigansk,66.77,123.37,48.81,97,100,8.48,RU,1598811377
244,Kerman,30.28,57.08,73.4,15,0,9.17,IR,1598811377
245,Nantucket,41.28,-70.1,75.2,60,1,24.16,US,1598811077
246,Iracoubo,5.48,-53.2,85.68,69,43,14.67,GF,1598811377
247,Talaya,61.38,152.75,31.57,94,0,1.92,RU,1598811378
248,Okhotsk,59.38,143.3,53.11,83,100,8.43,RU,1598811378
249,Grindavik,63.84,-22.43,53.6,93,90,28.86,IS,1598811378
250,Norman Wells,65.28,-126.83,51.8,62,75,12.75,CA,1598811219
251,Vanimo,-2.67,141.3,78.55,81,97,3.29,PG,1598811379
252,Bonthe,7.53,-12.51,77.7,83,100,14.74,SL,1598811379
253,Morehead,37.27,-87.18,77.0,83,90,3.36,US,1598811379
254,Awallan,17.92,121.91,75.72,86,87,1.21,PH,1598811379
255,Altamont,42.21,-121.74,69.01,16,1,6.93,US,1598811380
256,Isangel,-19.55,169.27,68.25,83,98,12.62,VU,1598811380
257,Saint-Pierre,-21.34,55.48,68.0,77,2,4.7,RE,1598811380
258,Geraldton,-28.77,114.6,42.8,87,0,3.67,AU,1598811380
259,Yeniseysk,58.45,92.17,51.12,95,4,2.57,RU,1598811381
260,Ustka,54.58,16.86,62.69,77,82,8.05,PL,1598811331
261,Manicoré,-5.81,-61.3,98.73,30,42,3.49,BR,1598811381
262,Kahului,20.89,-156.47,78.8,65,40,17.22,US,1598811381
263,Odienné,9.51,-7.57,75.99,92,92,3.33,CI,1598811381
264,Shorewood,41.52,-88.2,78.8,41,90,4.7,US,1598811356
265,Feldkirchen an der Donau,48.35,14.05,64.0,93,75,9.17,AT,1598811382
266,Raufoss,60.73,10.62,57.99,73,17,2.84,NO,1598811382
267,Bijie,27.31,105.29,63.54,90,96,5.55,CN,1598811382
268,Gobabis,-22.45,18.97,52.57,37,0,11.52,NA,1598811382
269,Hobyo,5.35,48.53,78.19,77,4,25.75,SO,1598811383
270,Nizwá,22.93,57.53,92.03,30,53,4.14,OM,1598811383
271,Saint Paul Harbor,57.79,-152.41,53.6,81,90,3.36,US,1598811383
272,Chabahar,25.29,60.64,86.0,79,47,13.87,IR,1598811383
273,Itaqui,-29.13,-56.55,52.66,85,100,16.53,BR,1598811384
274,Pisco,-13.7,-76.22,64.99,77,100,5.82,PE,1598811384
275,Leh,34.17,77.58,61.65,29,0,4.36,IN,1598811384
276,Los Llanos de Aridane,28.66,-17.92,77.0,53,40,18.34,ES,1598811385
277,Verkhnevilyuysk,63.45,120.32,49.44,94,34,3.51,RU,1598811125
278,Pitimbu,-7.47,-34.81,84.2,54,20,14.99,BR,1598811385
279,Bila Tserkva,49.81,30.11,78.01,39,0,7.0,UA,1598811385
280,Ponta do Sol,32.67,-17.1,73.99,44,5,5.17,PT,1598811385
281,Kaeo,-35.1,173.78,46.0,3,28,2.39,NZ,1598811386
282,Shihezi,44.3,86.03,70.02,28,0,5.23,CN,1598811386
283,Ilek,51.53,53.38,67.37,64,5,8.12,RU,1598811386
284,Limbach-Oberfrohna,50.87,12.75,57.99,92,100,4.0,DE,1598811386
285,Cuxhaven,53.87,8.69,64.99,72,20,10.29,DE,1598811237
286,Mossamedes,-15.2,12.15,64.24,69,3,8.7,AO,1598811387
287,Belle Fourche,44.67,-103.85,68.0,48,75,19.46,US,1598811326
288,Santa Isabel Rio Negro,-0.41,-65.02,85.89,71,98,2.28,BR,1598811387
289,Wattignies,50.59,3.04,61.0,77,90,14.99,FR,1598811387
290,Toora-Khem,52.47,96.11,44.47,89,28,2.64,RU,1598811388
291,East London,-33.02,27.91,50.0,66,30,6.93,ZA,1598811388
292,Road Town,18.42,-64.62,88.0,70,40,14.99,VG,1598811188
293,Inverurie,57.28,-2.38,55.99,76,20,5.82,GB,1598811388
294,Taxisco,14.07,-90.46,91.4,55,20,9.17,GT,1598811221
295,Mehamn,71.04,27.85,48.2,66,40,14.99,NO,1598811389
296,Muswellbrook,-32.27,150.9,50.0,58,0,3.62,AU,1598811389
297,Airai,-8.93,125.41,56.52,100,22,3.85,TL,1598811389
298,Tura,25.52,90.22,76.17,90,100,3.58,IN,1598811389
299,Vadsø,70.07,29.75,50.0,87,75,13.87,NO,1598811390
300,Pangnirtung,66.15,-65.71,46.4,81,20,9.17,CA,1598811390
301,Kariapatti,9.68,78.1,84.2,70,75,3.36,IN,1598811390
302,Shingū,33.73,135.98,76.32,83,12,3.6,JP,1598811390
303,Mulchén,-37.72,-72.23,53.6,54,0,20.8,CL,1598811391
304,Hervey Bay,-25.3,152.85,62.01,77,90,5.82,AU,1598811391
305,Buta,2.79,24.73,72.01,94,100,1.52,CD,1598811391
306,Sibolga,1.74,98.78,76.32,83,100,3.27,ID,1598811391
307,Álamos,27.02,-108.93,88.0,76,97,10.0,MX,1598811392
308,Terney,45.05,136.61,56.61,76,71,13.42,RU,1598811392
309,Itarema,-2.92,-39.92,86.38,53,40,22.59,BR,1598811392
310,Praia da Vitória,38.73,-27.07,82.4,74,40,7.27,PT,1598811351
311,Nanortalik,60.14,-45.24,48.4,74,100,10.47,GL,1598811392
312,Mogok,22.92,96.5,67.5,100,100,2.06,MM,1598811393
313,Hays,30.05,-98.03,98.01,49,2,5.01,US,1598811393
314,Rocha,-34.48,-54.33,53.31,51,24,7.7,UY,1598811393
315,Koygorodok,60.45,51.0,52.84,97,90,3.78,RU,1598811393
316,Saint Anthony,45.02,-93.22,75.99,47,20,12.75,US,1598811394
317,Lorengau,-2.02,147.27,81.25,80,92,9.4,PG,1598811394
318,Teahupoo,-17.83,-149.27,78.01,65,20,4.7,PF,1598811318
319,Phan Thiet,10.93,108.1,78.8,86,26,7.29,VN,1598811394
320,Parry Sound,45.35,-80.03,64.99,76,4,8.01,CA,1598811394
321,Lagoa,39.05,-27.98,75.11,93,26,11.97,PT,1598811395
322,Edgewater,28.99,-80.9,86.0,70,75,11.41,US,1598811395
323,Tegul'det,57.31,88.17,52.36,96,13,2.17,RU,1598811395
324,Pāsighāt,28.07,95.33,77.52,77,100,2.8,IN,1598811395
325,Coquimbo,-29.95,-71.34,59.0,67,0,12.75,CL,1598811396
326,Auki,-8.77,160.7,77.92,87,48,4.21,SB,1598811396
327,Portland,45.52,-122.68,63.0,59,90,5.82,US,1598811396
328,Ibrā’,22.69,58.53,88.39,45,42,6.26,OM,1598811396
329,Zhezkazgan,47.8,67.71,71.6,28,0,13.42,KZ,1598811397
330,Nur-Sultan,51.18,71.45,57.2,71,15,8.95,KZ,1598811397
331,Klaksvík,62.23,-6.59,51.8,93,95,9.17,FO,1598811397
332,Saldanha,-33.01,17.94,50.0,66,0,4.7,ZA,1598811398
333,Al Bardīyah,31.76,25.09,76.71,75,0,8.46,LY,1598811398
334,Kantang,7.41,99.52,79.11,82,48,2.04,TH,1598811398
335,Te Anau,-45.42,167.72,48.0,74,53,10.6,NZ,1598811398
336,Kendal,54.33,-2.75,57.99,71,94,0.78,GB,1598811399
337,Saint-François,46.42,3.91,62.6,63,32,8.05,FR,1598811399
338,Batemans Bay,-35.72,150.18,57.0,92,81,3.13,AU,1598811399
339,Muisne,0.6,-80.03,84.2,79,40,10.29,EC,1598811399
340,Manokwari,-0.87,134.08,78.8,72,77,5.44,ID,1598811400
341,Sarangani,5.4,125.46,83.1,76,100,7.23,PH,1598811400
342,Sarai Alamgir,32.9,73.76,82.4,78,40,4.7,PK,1598811400
343,Puerto del Rosario,28.5,-13.86,78.8,57,20,23.04,ES,1598811400
344,Waipawa,-41.41,175.52,55.4,76,2,25.28,NZ,1598811401
345,Chalchihuites,23.48,-103.88,71.56,55,69,6.26,MX,1598811401
346,Port Keats,-14.25,129.55,73.44,44,0,7.99,AU,1598811401
347,Torbay,47.67,-52.73,69.01,100,90,23.04,CA,1598811401
348,Mandapam,9.28,79.12,83.35,82,98,21.0,IN,1598811402
349,Wattegama,6.8,81.48,79.57,74,77,3.18,LK,1598811402
350,Ţahţā,26.77,31.5,96.8,22,0,9.17,EG,1598811366
351,Ossora,59.24,163.07,46.11,76,99,9.46,RU,1598811402
352,Malakal,9.53,31.66,75.31,86,73,0.74,SS,1598811403
353,Marathon,44.9,-89.77,69.8,49,1,3.36,US,1598811403
354,Ekhabi,53.51,142.97,45.25,89,45,8.25,RU,1598811403
355,George Town,5.41,100.34,80.6,94,40,3.36,MY,1598811404
356,Quatre Cocos,-20.21,57.76,71.6,83,75,14.99,MU,1598811404
357,Khatanga,71.97,102.5,45.75,84,100,8.01,RU,1598811404
358,Lingao,19.91,109.69,79.86,79,0,6.4,CN,1598811404
359,Fray Bentos,-33.13,-58.3,53.01,54,57,8.01,UY,1598811405
360,Bandarbeyla,9.49,50.81,77.13,79,94,30.89,SO,1598811405
361,Pangody,65.85,74.49,44.1,79,1,8.68,RU,1598811405
362,Alice Springs,-23.7,133.88,53.6,32,0,1.12,AU,1598811406
363,Philadelphia,39.95,-75.16,81.0,44,40,17.22,US,1598811326
364,College,64.86,-147.8,54.0,76,75,3.13,US,1598811406
365,Cayenne,4.93,-52.33,89.6,62,43,13.87,GF,1598811400
366,General Roca,-39.03,-67.58,55.4,32,0,12.75,AR,1598811406
367,Tamworth,52.63,-1.7,57.2,54,100,6.93,GB,1598811407
368,Okha,53.57,142.95,46.26,87,42,8.86,RU,1598811407
369,Mushie,-3.02,16.9,84.65,55,91,3.47,CD,1598811407
370,Myre,69.1,15.95,46.4,70,94,10.29,NO,1598811407
371,Sinegor'ye,62.08,150.48,36.48,78,0,3.8,RU,1598811128
372,Sorong,-0.88,131.25,77.34,89,36,8.59,ID,1598811408
373,Barra Patuca,15.8,-84.28,87.3,61,17,10.29,HN,1598811408
374,Bairnsdale,-37.83,147.62,48.0,82,72,1.99,AU,1598811408
375,Daru,-9.08,143.21,77.38,88,100,17.81,PG,1598811409
376,Pevek,69.7,170.31,36.28,86,66,3.31,RU,1598811128
377,Lázaro Cárdenas,17.96,-102.2,82.54,80,100,6.91,MX,1598811409
378,Kaitangata,-46.28,169.85,55.99,39,100,11.99,NZ,1598811409
379,Tessalit,20.2,1.01,92.01,40,56,14.36,ML,1598811409
380,Maningrida,-12.07,134.27,73.9,73,58,10.25,AU,1598811410
381,Tuatapere,-46.13,167.68,45.0,72,57,11.01,NZ,1598811410
382,Aksu,41.12,80.26,73.65,35,47,3.76,CN,1598811410
383,Luanda,-8.84,13.23,69.8,83,20,10.29,AO,1598811410
384,Gull Lake,50.1,-108.48,62.6,29,1,21.92,CA,1598811362
385,Lima,-12.04,-77.03,64.4,72,90,4.7,PE,1598811145
386,Zawadzkie,50.6,18.48,73.0,82,88,8.99,PL,1598811411
387,Houma,29.6,-90.72,73.4,100,90,8.05,US,1598811285
388,Palembang,-2.92,104.75,74.89,92,67,3.8,ID,1598811411
389,Korla,41.76,86.15,75.99,61,6,3.0,CN,1598811255
390,Damaturu,11.75,11.96,78.89,73,17,7.23,NG,1598811412
391,Kavaratti,10.57,72.64,82.38,78,63,11.63,IN,1598811412
392,Boddam,57.47,-1.78,53.6,76,20,5.82,GB,1598811412
393,Trairi,-3.28,-39.27,86.36,51,49,18.72,BR,1598811412
394,Urengoy,65.97,78.37,42.98,89,3,4.88,RU,1598811412
395,Suihua,46.64,127.0,58.59,89,100,8.88,CN,1598811413
396,Marawi,8.0,124.29,75.99,85,100,5.01,PH,1598811413
397,Jacareacanga,-6.22,-57.75,96.66,35,42,7.58,BR,1598811413
398,Srbobran,45.55,19.8,86.79,28,18,10.25,RS,1598811414
399,Nagapattinam,10.77,79.83,83.17,80,91,12.26,IN,1598811414
400,Puerto Escondido,15.85,-97.07,86.0,55,40,6.93,MX,1598811414
401,Sunndalsøra,62.68,8.55,53.6,58,20,9.17,NO,1598811414
402,Norfolk,42.17,-71.25,78.01,47,0,17.22,US,1598811271
403,Charters Towers,-20.1,146.27,57.45,94,4,7.78,AU,1598811415
404,Yar-Sale,66.83,70.83,38.98,90,47,8.39,RU,1598811415
405,Abu Samrah,35.3,37.18,87.01,19,0,9.86,SY,1598811415
406,Flin Flon,54.77,-101.86,59.0,62,75,11.41,CA,1598811361
407,Waddān,29.16,16.14,91.38,15,0,8.93,LY,1598811415
408,Batagay-Alyta,67.8,130.41,43.23,74,97,2.15,RU,1598811416
409,Great Bend,38.36,-98.76,82.0,78,90,9.17,US,1598811416
410,Naze,28.37,129.48,82.4,88,20,6.93,JP,1598811272
411,Lodja,-3.48,23.43,73.18,91,97,3.6,CD,1598811416
412,Bairiki Village,1.33,172.98,82.4,78,40,4.7,KI,1598811417
413,‘Āhuimanu,21.44,-157.84,82.0,65,20,13.87,US,1598811417
414,Freeport,40.66,-73.58,80.01,41,75,14.99,US,1598811130
415,Fasa,28.94,53.65,84.2,13,0,6.93,IR,1598811417
416,Lucapa,-8.42,20.74,77.0,59,93,3.38,AO,1598811417
417,Ust'-Omchug,61.15,149.63,34.93,82,0,3.27,RU,1598811418
418,Petatlán,17.52,-101.27,82.4,74,75,11.41,MX,1598811418
419,El Cobre,20.05,-75.95,87.8,66,20,6.93,CU,1598811418
420,Tiksi,71.69,128.87,41.67,89,1,7.81,RU,1598811418
421,Dwārka,22.24,68.97,81.91,83,100,19.24,IN,1598811419
422,Chapada dos Guimarães,-15.46,-55.75,104.0,8,0,5.82,BR,1598811419
423,Poladpur,17.98,73.47,76.19,86,100,3.2,IN,1598811419
424,Champerico,14.3,-91.92,91.4,55,20,6.93,GT,1598811419
425,Arona,28.1,-16.68,77.0,53,40,25.28,ES,1598811420
426,Ligayan,4.65,119.47,84.49,70,52,6.24,PH,1598811420
427,Port Hardy,50.7,-127.42,55.4,87,90,10.29,CA,1598811420
428,Jacqueville,5.21,-4.41,78.8,83,20,10.29,CI,1598811421
429,Vostok,46.49,135.88,47.66,80,85,4.38,RU,1598811421
430,Alyangula,-13.85,136.42,78.8,65,90,5.82,AU,1598811421
431,Qaqortoq,60.72,-46.03,53.6,58,100,1.12,GL,1598811421
432,Hasaki,35.73,140.83,77.0,100,40,1.12,JP,1598811421
433,Cockburn Town,21.46,-71.14,87.8,62,40,12.75,TC,1598811422
434,Riyadh,24.69,46.72,95.0,17,17,2.24,SA,1598811379
435,Hoquiam,46.98,-123.89,64.0,77,1,10.29,US,1598811422
436,Samarai,-10.62,150.67,78.48,87,75,17.69,PG,1598811422
437,La Palma,33.85,-118.05,78.01,60,1,3.36,US,1598811423
438,Petropavlovsk-Kamchatskiy,53.05,158.65,41.0,100,79,8.95,RU,1598811423
439,Artyom,40.47,50.33,77.0,61,32,2.24,AZ,1598811423
440,Atambua,-9.11,124.89,69.6,86,27,5.88,ID,1598811423
441,Cap Malheureux,-19.98,57.61,70.0,79,0,8.99,MU,1598811424
442,Moerbeke,51.19,3.95,62.01,69,80,3.0,BE,1598811424
443,Ternate,0.8,127.4,80.06,80,75,2.68,ID,1598811424
444,Andenes,69.31,16.12,46.4,70,100,10.29,NO,1598811424
445,São Félix do Xingu,-6.64,-51.99,102.92,18,2,6.2,BR,1598811424
446,Bani Walid,31.76,13.99,85.06,38,0,17.6,LY,1598811425
447,Goderich,43.75,-81.72,73.0,78,44,5.01,CA,1598811425
448,Hirara,24.8,125.28,83.79,80,9,21.36,JP,1598811425
449,Kiama,-34.68,150.87,64.0,55,58,1.01,AU,1598811425
450,Alta Floresta,-9.88,-56.09,96.8,34,20,3.36,BR,1598811426
451,Donskoye,45.46,41.97,73.4,33,0,11.18,RU,1598811426
452,Pavlivka,49.44,28.46,75.2,50,0,8.95,UA,1598811426
453,Mount Gambier,-37.83,140.77,41.0,86,40,5.82,AU,1598811426
454,Maceió,-9.67,-35.74,82.4,61,75,12.75,BR,1598811239
455,Codrington,-38.27,141.97,45.55,73,58,10.09,AU,1598811427
456,Beatrice,40.27,-96.75,78.8,54,40,13.87,US,1598811427
457,Husavik,66.04,-17.34,60.8,59,75,24.16,IS,1598811427
458,Dikson,73.51,80.55,41.38,96,100,16.6,RU,1598811427
459,Shizunai-furukawachō,42.33,142.37,56.97,87,100,6.87,JP,1598811428
460,Mishelevka,52.86,103.17,54.39,92,99,9.78,RU,1598811428
461,Gorontalo,0.54,123.06,74.79,87,56,3.36,ID,1598811428
462,Dunn,44.95,-91.88,73.99,49,40,10.29,US,1598811428
463,The Valley,18.22,-63.06,87.8,62,40,18.34,AI,1598811214
464,Luau,-10.71,22.22,79.97,46,70,5.97,AO,1598811429
465,Omboué,-1.57,9.26,74.8,83,75,10.67,GA,1598811429
466,Bereda,43.27,-7.54,61.0,63,12,11.01,ES,1598811429
467,Paita,-5.09,-81.11,68.2,69,92,16.15,PE,1598811429
468,Shenjiamen,29.96,122.3,80.4,90,1,7.58,CN,1598811430
469,Stepnogorsk,52.35,71.89,67.98,49,12,2.89,KZ,1598811430
470,Villa Carlos Paz,-31.42,-64.5,61.0,37,21,5.82,AR,1598811430
471,Tāybād,34.74,60.78,70.95,27,0,14.58,IR,1598811430
472,Kondinskoye,59.65,67.41,66.06,83,49,11.05,RU,1598811431
473,Ust-Nera,64.57,143.2,44.29,76,96,0.92,RU,1598811431
474,Vágur,61.47,-6.81,51.46,86,94,9.55,FO,1598811431
475,Ola,59.58,151.28,44.26,64,0,4.14,RU,1598811431
476,Kalianget,-7.05,113.93,79.11,72,64,11.43,ID,1598811432
477,Fortuna,40.6,-124.16,66.0,63,1,6.93,US,1598811432
478,Katherine,-14.47,132.27,77.0,50,76,6.93,AU,1598811432
479,Merrill,45.18,-89.68,69.8,52,75,5.21,US,1598811432
480,Baganga,7.57,126.56,78.04,78,100,7.54,PH,1598811432
481,Alofi,-19.06,-169.92,66.2,100,36,3.36,NU,1598811433
482,Kirensk,57.79,108.11,53.42,79,94,1.86,RU,1598811433
483,Imbituba,-28.24,-48.67,73.4,64,20,25.28,BR,1598811364
484,Itacaré,-14.28,-39.0,82.4,74,40,10.29,BR,1598811433
485,Kadaya,50.93,119.29,50.63,100,100,4.21,RU,1598811434
486,Ketchikan,55.34,-131.65,53.6,100,90,13.87,US,1598811434
487,La Orilla,17.98,-102.23,82.29,81,100,6.8,MX,1598811434
488,Pasni,25.26,63.47,81.9,83,35,17.13,PK,1598811435
489,Mahajanga,-15.72,46.32,75.2,78,20,2.24,MG,1598811435
490,Rūdbār,30.15,62.6,81.34,16,0,17.67,AF,1598811435
491,Virginia Beach,36.85,-75.98,86.0,51,40,8.05,US,1598811243
492,Dhidhdhoo,6.88,73.1,83.3,76,68,9.66,MV,1598811435
493,Ojinaga,29.57,-104.42,96.8,25,1,4.7,MX,1598811436
494,Anadyr,64.75,177.48,35.01,86,20,6.71,RU,1598811436
495,Marana,32.44,-111.23,90.0,47,19,3.02,US,1598811297
496,Niamey,13.51,2.11,84.2,70,20,4.7,NE,1598811436
497,Bintulu,3.17,113.03,78.8,94,40,2.73,MY,1598811437
498,Namie,37.48,141.0,77.0,89,96,10.45,JP,1598811437
499,Faanui,-16.48,-151.75,76.51,76,14,23.55,PF,1598811437
500,Cabatuan,10.88,122.49,77.77,83,100,5.21,PH,1598811437
501,Berlevåg,70.86,29.09,46.4,93,75,6.93,NO,1598811438
502,Kodinsk,58.69,99.18,51.15,87,77,1.14,RU,1598811438
503,Prince Rupert,54.32,-130.32,53.6,93,90,11.41,CA,1598811371
504,Wajir,1.75,40.06,86.0,45,28,20.69,KE,1598811438
505,Caravelas,-17.71,-39.25,79.56,68,40,9.86,BR,1598811438
506,Clyde River,70.47,-68.59,48.2,81,1,14.99,CA,1598811439
507,Assiut,27.18,31.18,95.0,26,0,9.17,EG,1598811439
508,Vila Velha,-20.33,-40.29,80.6,74,20,16.11,BR,1598811140
509,San Cristobal,7.77,-72.22,86.0,58,40,9.17,VE,1598811440
510,Tall Kayf,37.08,41.07,87.87,13,0,6.58,TR,1598811440
511,Shimoda,34.67,138.95,72.0,93,19,3.04,JP,1598811440
512,Benguela,-12.58,13.41,68.36,79,3,5.08,AO,1598811440
513,Chumikan,54.72,135.31,49.37,73,65,4.34,RU,1598811440
514,Otuzco,-7.9,-78.58,61.81,50,34,9.78,PE,1598811441
515,Yaan,7.38,8.57,75.97,92,26,4.29,NG,1598811441
516,Aykhal,66.0,111.5,48.2,66,90,2.24,RU,1598811441
517,Poum,-20.23,164.02,68.81,70,49,12.21,NC,1598811441
518,Sosnogorsk,63.6,53.88,55.24,95,77,6.76,RU,1598811442
519,Bagé,-31.33,-54.11,51.8,76,75,9.17,BR,1598811207
520,Haines Junction,60.75,-137.51,46.8,75,100,4.14,CA,1598811442
521,Wanning,18.8,110.4,79.0,82,68,2.86,CN,1598811442
522,Barsovo,61.17,73.17,59.0,100,40,8.95,RU,1598811443
523,São José da Coroa Grande,-8.9,-35.15,79.36,71,9,11.1,BR,1598811443
524,Mossoró,-5.19,-37.34,93.74,32,41,16.08,BR,1598811443
525,Olafsvik,64.89,-23.71,52.68,92,100,26.15,IS,1598811443
526,Yatou,37.15,122.38,73.4,96,12,5.39,CN,1598811444
527,Bakāni,24.28,76.23,73.69,90,59,10.83,IN,1598811444
528,Paraíso,9.84,-83.87,80.6,54,75,11.41,CR,1598811444
529,Frederikshavn,57.44,10.54,60.01,74,13,1.99,DK,1598811444
530,Tchibanga,-2.85,11.03,74.37,78,71,6.58,GA,1598811445
531,Minusinsk,53.71,91.69,53.6,93,26,2.08,RU,1598811445
532,Havøysund,71.0,24.66,48.2,70,40,20.8,NO,1598811445
533,Hualmay,-11.1,-77.61,66.51,66,93,9.98,PE,1598811445
534,Ust'-Kulom,61.69,53.69,53.15,94,94,5.97,RU,1598811446
535,Nishifukuma,33.77,130.47,82.4,78,20,4.7,JP,1598811446
536,Chamba,32.57,76.13,71.94,73,48,1.5,IN,1598811446
537,Roebourne,-20.78,117.13,74.34,39,0,5.91,AU,1598811446
538,Wasilla,61.58,-149.44,55.99,71,1,3.36,US,1598811153
539,Bacolod City,10.67,122.95,79.59,84,100,9.13,PH,1598811447
540,Papetoai,-17.5,-149.87,78.01,65,20,4.7,PF,1598811447
541,Antofagasta,-23.65,-70.4,59.0,67,90,12.75,CL,1598811447
542,Natal,-5.79,-35.21,86.0,51,20,20.8,BR,1598811447
543,Inhambane,-23.86,35.38,77.0,83,40,6.93,MZ,1598811448
544,Palenque/Temp,17.52,-91.97,91.4,66,20,2.33,MX,1598811448
545,Carutapera,-1.2,-46.02,87.03,57,69,12.91,BR,1598811448
546,Arvin,35.21,-118.83,89.01,29,0,4.0,US,1598811448
547,Esim,4.87,-2.24,76.21,81,89,10.13,GH,1598811448
548,San Miguel de Tucumán,-26.82,-65.22,53.6,58,90,9.17,AR,1598811272
549,Vanavara,60.34,102.28,49.01,90,23,2.82,RU,1598811449
550,Acapulco de Juárez,16.86,-99.89,86.0,66,40,4.7,MX,1598811304
551,Mattru,7.62,-11.83,75.36,92,100,5.57,SL,1598811449
552,Nakhon Thai,17.1,100.84,76.62,85,99,2.17,TH,1598811450
553,Tadine,-21.55,167.88,64.42,71,44,11.95,NC,1598811450
554,Yurkivka,49.01,31.1,74.93,33,0,6.02,UA,1598811450
555,Fjerritslev,57.08,9.27,60.01,72,0,11.99,DK,1598811450
556,Marsh Harbour,26.54,-77.06,86.05,66,97,9.91,BS,1598811450
557,Ningyang,35.76,116.79,76.21,83,95,1.5,CN,1598811451
558,Kungurtug,50.6,97.52,45.46,86,97,1.23,RU,1598811451
559,Zyryanovsk,49.74,84.27,53.74,71,0,1.54,KZ,1598811451
560,Rock Sound,24.9,-76.2,83.82,65,53,4.05,BS,1598811451
561,Chetwayi,10.53,76.05,82.4,78,40,6.93,IN,1598811452
562,Koslan,63.46,48.9,49.91,87,100,4.59,RU,1598811452
563,Gijang,35.24,129.21,80.6,69,75,10.29,KR,1598811452
